city,longitude,latitude
murska_sobota,16.1913,46.6521
lj_bezigrad,14.5124,46.0655
iskrba,14.8580,45.5612
koper,13.7135,45.5430
maribor,15.6260,46.5678
celje,15.2259,46.2366
ptuj,15.8492,46.4197
zagorje,14.9960,46.1311
trbovlje,15.0539,46.1575
hrastnik,15.0832,46.1440
nova_gorica,13.6524,45.9556